id,name,entity,iso_code,gwno,slug,region.id,region.name,Tracker,Country,tracker_slug,base_url,tracker_url,timeline_url,process_url,actors_url,impacts_url,sub-region_geo,region_geo,central_longitude,central_latitude,country_geo,con_name_geo,search_pax
5,Afghanistan,False,AFG,700,afghanistan,4,Europe and Eurasia,1.0,Afghanistan,afghanistan,https://www.peaceagreements.org/tracker/,https://www.peaceagreements.org/tracker/afghanistan,https://www.peaceagreements.org/tracker/timeline/afghanistan,https://www.peaceagreements.org/tracker/process/afghanistan,https://www.peaceagreements.org/tracker/actors/afghanistan,https://www.peaceagreements.org/tracker/impacts/afghanistan,Southern Asia,Asia,66.02471,33.83114,AFG,Afghanistan,https://www.peaceagreements.org/agreements/search/?search_type=basic-search&countries=5&match_any_issues=True&name=&text=&signed_after=&signed_before=
8,Algeria,False,DZA,615,algeria,5,Middle East and North Africa,,,,,,,,,,Northern Africa,Africa,2.679966,28.14411,DZA,Algeria,https://www.peaceagreements.org/agreements/search/?search_type=basic-search&countries=8&match_any_issues=True&name=&text=&signed_after=&signed_before=
9,Angola,False,AGO,540,angola,1,Africa (excl MENA),,,,,,,,,,Sub-Saharan Africa,Africa,17.54534,-12.2937,AGO,Angola,https://www.peaceagreements.org/agreements/search/?search_type=basic-search&countries=9&match_any_issues=True&name=&text=&signed_after=&signed_before=
11,Argentina,False,ARG,160,argentina,2,Americas,,,,,,,,,,Latin America and the Caribbean,Americas,-65.0715,-35.4958,ARG,Argentina,https://www.peaceagreements.org/agreements/search/?search_type=basic-search&countries=11&match_any_issues=True&name=&text=&signed_after=&signed_before=
12,Armenia,False,ARM,371,armenia,4,Europe and Eurasia,,,,,,,,,,Western Asia,Asia,44.94022,40.29308,ARM,Armenia,https://www.peaceagreements.org/agreements/search/?search_type=basic-search&countries=12&match_any_issues=True&name=&text=&signed_after=&signed_before=
16,Azerbaijan,False,AZE,373,azerbaijan,4,Europe and Eurasia,,,,,,,,,,Western Asia,Asia,47.52871,40.29016,AZE,Azerbaijan,https://www.peaceagreements.org/agreements/search/?search_type=basic-search&countries=16&match_any_issues=True&name=&text=&signed_after=&signed_before=
161,Bahrain,False,BHR,692,bahrain,5,Middle East and North Africa,,,,,,,,,,Western Asia,Asia,50.56443,26.05186,BHR,Bahrain,https://www.peaceagreements.org/agreements/search/?search_type=basic-search&countries=161&match_any_issues=True&name=&text=&signed_after=&signed_before=
17,Bangladesh,False,BGD,771,bangladesh,3,Asia and Pacific,,,,,,,,,,Southern Asia,Asia,90.28845,23.80467,BGD,Bangladesh,https://www.peaceagreements.org/agreements/search/?search_type=basic-search&countries=17&match_any_issues=True&name=&text=&signed_after=&signed_before=
20,Bosnia and Herzegovina,False,BIH,346,bosnia-and-herzegovina,4,Europe and Eurasia,1.0,Bosnia and Herzegovina,bosnia-and-herzegovina,https://www.peaceagreements.org/tracker/,https://www.peaceagreements.org/tracker/bosnia-and-herzegovina,https://www.peaceagreements.org/tracker/timeline/bosnia-and-herzegovina,https://www.peaceagreements.org/tracker/process/bosnia-and-herzegovina,https://www.peaceagreements.org/tracker/actors/bosnia-and-herzegovina,https://www.peaceagreements.org/tracker/impacts/bosnia-and-herzegovina,Southern Europe,Europe,17.78525,44.16825,BIH,Bosnia,https://www.peaceagreements.org/agreements/search/?search_type=basic-search&countries=20&match_any_issues=True&name=&text=&signed_after=&signed_before=
22,Burundi,False,BDI,516,burundi,1,Africa (excl MENA),,,,,,,,,,Sub-Saharan Africa,Africa,29.92644,-3.3223,BDI,Burundi,https://www.peaceagreements.org/agreements/search/?search_type=basic-search&countries=22&match_any_issues=True&name=&text=&signed_after=&signed_before=
23,Cambodia,False,KHM,811,cambodia,3,Asia and Pacific,,,,,,,,,,South-eastern Asia,Asia,104.9112,12.70904,KHM,Cambodia,https://www.peaceagreements.org/agreements/search/?search_type=basic-search&countries=23&match_any_issues=True&name=&text=&signed_after=&signed_before=
24,Cameroon,False,CMR,471,cameroon,1,Africa (excl MENA),,,,,,,,,,Sub-Saharan Africa,Africa,12.73861,5.673797,CMR,Cameroon,https://www.peaceagreements.org/agreements/search/?search_type=basic-search&countries=24&match_any_issues=True&name=&text=&signed_after=&signed_before=
26,Central African Republic,False,CAF,482,central-african-republic,1,Africa (excl MENA),,,,,,,,,,Sub-Saharan Africa,Africa,20.48548,6.574163,CAF,Central African Republic,https://www.peaceagreements.org/agreements/search/?search_type=basic-search&countries=26&match_any_issues=True&name=&text=&signed_after=&signed_before=
27,Chad,False,TCD,483,chad,1,Africa (excl MENA),,,,,,,,,,Sub-Saharan Africa,Africa,18.67417,15.37626,TCD,Chad,https://www.peaceagreements.org/agreements/search/?search_type=basic-search&countries=27&match_any_issues=True&name=&text=&signed_after=&signed_before=
30,China,False,CHN,710,china,3,Asia and Pacific,,,,,,,,,,Eastern Asia,Asia,103.93,36.56735,CHN,China,https://www.peaceagreements.org/agreements/search/?search_type=basic-search&countries=30&match_any_issues=True&name=&text=&signed_after=&signed_before=
32,Colombia,False,COL,100,colombia,2,Americas,1.0,Colombia,colombia,https://www.peaceagreements.org/tracker/,https://www.peaceagreements.org/tracker/colombia,https://www.peaceagreements.org/tracker/timeline/colombia,https://www.peaceagreements.org/tracker/process/colombia,https://www.peaceagreements.org/tracker/actors/colombia,https://www.peaceagreements.org/tracker/impacts/colombia,Latin America and the Caribbean,Americas,-73.0758,3.901116,COL,Colombia,https://www.peaceagreements.org/agreements/search/?search_type=basic-search&countries=32&match_any_issues=True&name=&text=&signed_after=&signed_before=
33,Comoros,False,COM,581,comoros,1,Africa (excl MENA),,,,,,,,,,Sub-Saharan Africa,Africa,43.35422,-11.6626,COM,Comoros,https://www.peaceagreements.org/agreements/search/?search_type=basic-search&countries=33&match_any_issues=True&name=&text=&signed_after=&signed_before=
36,Costa Rica,False,CRI,94,costa-rica,2,Americas,,,,,,,,,,Latin America and the Caribbean,Americas,-84.1963,9.972837,CRI,Costa Rica,https://www.peaceagreements.org/agreements/search/?search_type=basic-search&countries=36&match_any_issues=True&name=&text=&signed_after=&signed_before=
37,Cote d'Ivoire,False,CIV,437,cote-divoire,1,Africa (excl MENA),,,,,,,,,,Sub-Saharan Africa,Africa,-5.55473,7.629183,CIV,Cote d'Ivoire,https://www.peaceagreements.org/agreements/search/?search_type=basic-search&countries=37&match_any_issues=True&name=&text=&signed_after=&signed_before=
38,Croatia,False,HRV,344,croatia,4,Europe and Eurasia,,,,,,,,,,Southern Europe,Europe,15.43562,45.11868,HRV,Croatia,https://www.peaceagreements.org/agreements/search/?search_type=basic-search&countries=38&match_any_issues=True&name=&text=&signed_after=&signed_before=
39,Cyprus,False,CYP,352,cyprus,4,Europe and Eurasia,,,,,,,,,,Western Asia,Asia,33.22623,35.05017,CYP,Cyprus,https://www.peaceagreements.org/agreements/search/?search_type=basic-search&countries=39&match_any_issues=True&name=&text=&signed_after=&signed_before=
42,Democratic Republic of Congo,False,COD,490,democratic-republic-of-congo,1,Africa (excl MENA),1.0,Democratic Republic of Congo,democratic-republic-of-congo,https://www.peaceagreements.org/tracker/,https://www.peaceagreements.org/tracker/democratic-republic-of-congo,https://www.peaceagreements.org/tracker/timeline/democratic-republic-of-congo,https://www.peaceagreements.org/tracker/process/democratic-republic-of-congo,https://www.peaceagreements.org/tracker/actors/democratic-republic-of-congo,https://www.peaceagreements.org/tracker/impacts/democratic-republic-of-congo,Sub-Saharan Africa,Africa,23.6157,-2.86219,COD,"Congo, Democratic Republic of the",https://www.peaceagreements.org/agreements/search/?search_type=basic-search&countries=42&match_any_issues=True&name=&text=&signed_after=&signed_before=
43,Djibouti,False,DJI,522,djibouti,1,Africa (excl MENA),,,,,,,,,,Sub-Saharan Africa,Africa,42.58018,11.73376,DJI,Djibouti,https://www.peaceagreements.org/agreements/search/?search_type=basic-search&countries=43&match_any_issues=True&name=&text=&signed_after=&signed_before=
46,Ecuador,False,ECU,130,ecuador,2,Americas,,,,,,,,,,Latin America and the Caribbean,Americas,-78.7752,-1.42884,ECU,Ecuador,https://www.peaceagreements.org/agreements/search/?search_type=basic-search&countries=46&match_any_issues=True&name=&text=&signed_after=&signed_before=
203,Egypt,False,EGY,651,egypt,5,Middle East and North Africa,,,,,,,,,,Northern Africa,Africa,29.852739,26.434455,,,https://www.peaceagreements.org/agreements/search/?search_type=basic-search&countries=203&match_any_issues=True&name=&text=&signed_after=&signed_before=
47,El Salvador,False,SLV,92,el-salvador,2,Americas,,,,,,,,,,Latin America and the Caribbean,Americas,-88.8657,13.73347,SLV,El Salvador,https://www.peaceagreements.org/agreements/search/?search_type=basic-search&countries=47&match_any_issues=True&name=&text=&signed_after=&signed_before=
200,Equatorial Guinea,False,GNQ,411,equatorial-guinea,1,Africa (excl MENA),,,,,,,,,,Sub-Saharan Africa,Africa,10.33309,1.702615,GNQ,Equatorial Guinea,https://www.peaceagreements.org/agreements/search/?search_type=basic-search&countries=200&match_any_issues=True&name=&text=&signed_after=&signed_before=
48,Eritrea,False,ERI,531,eritrea,1,Africa (excl MENA),,,,,,,,,,Sub-Saharan Africa,Africa,38.86067,15.3628,ERI,Eritrea,https://www.peaceagreements.org/agreements/search/?search_type=basic-search&countries=48&match_any_issues=True&name=&text=&signed_after=&signed_before=
49,Ethiopia,False,ETH,530,ethiopia,1,Africa (excl MENA),1.0,Ethiopia,ethiopia,https://www.peaceagreements.org/tracker/,https://www.peaceagreements.org/tracker/ethiopia,https://www.peaceagreements.org/tracker/timeline/ethiopia,https://www.peaceagreements.org/tracker/process/ethiopia,https://www.peaceagreements.org/tracker/actors/ethiopia,https://www.peaceagreements.org/tracker/impacts/ethiopia,Sub-Saharan Africa,Africa,39.64475,8.619089,ETH,Ethiopia,https://www.peaceagreements.org/agreements/search/?search_type=basic-search&countries=49&match_any_issues=True&name=&text=&signed_after=&signed_before=
51,Fiji,False,FJI,950,fiji,3,Asia and Pacific,,,,,,,,,,Melanesia,Oceania,177.9633,-17.8354,FJI,Fiji,https://www.peaceagreements.org/agreements/search/?search_type=basic-search&countries=51&match_any_issues=True&name=&text=&signed_after=&signed_before=
52,France,False,FRA,220,france,4,Europe and Eurasia,,,,,,,,,,Western Europe,Europe,2.55054,46.55942,FRA,France,https://www.peaceagreements.org/agreements/search/?search_type=basic-search&countries=52&match_any_issues=True&name=&text=&signed_after=&signed_before=
54,Gabon,False,GAB,481,gabon,1,Africa (excl MENA),,,,,,,,,,Sub-Saharan Africa,Africa,11.78176,-0.6239,GAB,Gabon,https://www.peaceagreements.org/agreements/search/?search_type=basic-search&countries=54&match_any_issues=True&name=&text=&signed_after=&signed_before=
170,Gambia,False,GMB,420,gambia,1,Africa (excl MENA),,,,,,,,,,Sub-Saharan Africa,Africa,-15.3809,13.44801,GMB,Gambia,https://www.peaceagreements.org/agreements/search/?search_type=basic-search&countries=170&match_any_issues=True&name=&text=&signed_after=&signed_before=
55,Georgia,False,GEO,372,georgia,4,Europe and Eurasia,,,,,,,,,,Western Asia,Asia,45.0,42.5,,,https://www.peaceagreements.org/agreements/search/?search_type=basic-search&countries=55&match_any_issues=True&name=&text=&signed_after=&signed_before=
194,Germany,False,DEU,260,germany,4,Europe and Eurasia,,,,,,,,,,Western Europe,Europe,10.39228,51.11063,DEU,Federal Republic of Germany,https://www.peaceagreements.org/agreements/search/?search_type=basic-search&countries=194&match_any_issues=True&name=&text=&signed_after=&signed_before=
172,Ghana,False,GHA,452,ghana,1,Africa (excl MENA),,,,,,,,,,Sub-Saharan Africa,Africa,-1.24977,7.980995,GHA,Ghana,https://www.peaceagreements.org/agreements/search/?search_type=basic-search&countries=172&match_any_issues=True&name=&text=&signed_after=&signed_before=
165,Greece,False,GRC,350,greece,4,Europe and Eurasia,,,,,,,,,,Southern Europe,Europe,22.0,39.0,GRC,Greece,https://www.peaceagreements.org/agreements/search/?search_type=basic-search&countries=165&match_any_issues=True&name=&text=&signed_after=&signed_before=
56,Guatemala,False,GTM,90,guatemala,2,Americas,,,,,,,,,,Latin America and the Caribbean,Americas,-90.364,15.69724,GTM,Guatemala,https://www.peaceagreements.org/agreements/search/?search_type=basic-search&countries=56&match_any_issues=True&name=&text=&signed_after=&signed_before=
57,Guinea,False,GIN,438,guinea,1,Africa (excl MENA),,,,,,,,,,Sub-Saharan Africa,Africa,-10.9425,10.43545,GIN,Guinea,https://www.peaceagreements.org/agreements/search/?search_type=basic-search&countries=57&match_any_issues=True&name=&text=&signed_after=&signed_before=
58,Guinea-Bissau,False,GNB,404,guinea-bissau,1,Africa (excl MENA),,,,,,,,,,Sub-Saharan Africa,Africa,-14.985,12.01013,GNB,Guinea-Bissau,https://www.peaceagreements.org/agreements/search/?search_type=basic-search&countries=58&match_any_issues=True&name=&text=&signed_after=&signed_before=
59,Haiti,False,HTI,41,haiti,2,Americas,,,,,,,,,,Latin America and the Caribbean,Americas,-72.3386,18.40248,HTI,Haiti,https://www.peaceagreements.org/agreements/search/?search_type=basic-search&countries=59&match_any_issues=True&name=&text=&signed_after=&signed_before=
61,Honduras,False,HND,91,honduras,2,Americas,,,,,,,,,,Latin America and the Caribbean,Americas,-86.6003,14.82417,HND,Honduras,https://www.peaceagreements.org/agreements/search/?search_type=basic-search&countries=61&match_any_issues=True&name=&text=&signed_after=&signed_before=
62,India,False,IND,750,india,3,Asia and Pacific,,,,,,,,,,Southern Asia,Asia,79.44333,23.37938,IND,India,https://www.peaceagreements.org/agreements/search/?search_type=basic-search&countries=62&match_any_issues=True&name=&text=&signed_after=&signed_before=
63,Indonesia,False,IDN,850,indonesia,3,Asia and Pacific,,,,,,,,,,South-eastern Asia,Asia,113.9159,-0.98982,IDN,Indonesia,https://www.peaceagreements.org/agreements/search/?search_type=basic-search&countries=63&match_any_issues=True&name=&text=&signed_after=&signed_before=
66,Iran,False,IRN,630,iran,5,Middle East and North Africa,,,,,,,,,,Southern Asia,Asia,54.30591,32.55802,IRN,Iran,https://www.peaceagreements.org/agreements/search/?search_type=basic-search&countries=66&match_any_issues=True&name=&text=&signed_after=&signed_before=
64,Iraq,False,IRQ,645,iraq,5,Middle East and North Africa,1.0,Iraq,iraq,https://www.peaceagreements.org/tracker/,https://www.peaceagreements.org/tracker/iraq,https://www.peaceagreements.org/tracker/timeline/iraq,https://www.peaceagreements.org/tracker/process/iraq,https://www.peaceagreements.org/tracker/actors/iraq,https://www.peaceagreements.org/tracker/impacts/iraq,Western Asia,Asia,43.77717,33.03897,IRQ,Iraq,https://www.peaceagreements.org/agreements/search/?search_type=basic-search&countries=64&match_any_issues=True&name=&text=&signed_after=&signed_before=
65,Ireland,False,IRL,205,ireland,4,Europe and Eurasia,,,,,,,,,,Northern Europe,Europe,-8.14601,53.17588,IRL,Ireland,https://www.peaceagreements.org/agreements/search/?search_type=basic-search&countries=65&match_any_issues=True&name=&text=&signed_after=&signed_before=
67,Israel,False,ISR,666,israel,5,Middle East and North Africa,,,,,,,,,,Western Asia,Asia,34.97922,31.97771,ISR,Israel,https://www.peaceagreements.org/agreements/search/?search_type=basic-search&countries=67&match_any_issues=True&name=&text=&signed_after=&signed_before=
199,Japan,False,JPN,740,japan,3,Asia and Pacific,,,,,,,,,,Eastern Asia,Asia,139.2715,36.65523,JPN,Japan,https://www.peaceagreements.org/agreements/search/?search_type=basic-search&countries=199&match_any_issues=True&name=&text=&signed_after=&signed_before=
68,Jordan,False,JOR,663,jordan,5,Middle East and North Africa,,,,,,,,,,Western Asia,Asia,36.7881,31.24819,JOR,Hashemite Kingdom of Jordan,https://www.peaceagreements.org/agreements/search/?search_type=basic-search&countries=68&match_any_issues=True&name=&text=&signed_after=&signed_before=
69,Kazakhstan,False,KAZ,705,kazakhstan,4,Europe and Eurasia,,,,,,,,,,Central Asia,Asia,67.19505,48.18311,KAZ,Kazakhstan,https://www.peaceagreements.org/agreements/search/?search_type=basic-search&countries=69&match_any_issues=True&name=&text=&signed_after=&signed_before=
70,Kenya,False,KEN,501,kenya,1,Africa (excl MENA),,,,,,,,,,Sub-Saharan Africa,Africa,37.8897,0.528431,KEN,Kenya,https://www.peaceagreements.org/agreements/search/?search_type=basic-search&countries=70&match_any_issues=True&name=&text=&signed_after=&signed_before=
71,Kosovo,False,,347,kosovo,4,Europe and Eurasia,,,,,,,,,,Southern Europe,Europe,20.89157,42.58151,,,https://www.peaceagreements.org/agreements/search/?search_type=basic-search&countries=71&match_any_issues=True&name=&text=&signed_after=&signed_before=
72,Kuwait,False,KWT,690,kuwait,5,Middle East and North Africa,,,,,,,,,,Western Asia,Asia,47.61217,29.35534,KWT,Kuwait,https://www.peaceagreements.org/agreements/search/?search_type=basic-search&countries=72&match_any_issues=True&name=&text=&signed_after=&signed_before=
73,Kyrgyzstan,False,KGZ,703,kyrgyzstan,4,Europe and Eurasia,,,,,,,,,,Central Asia,Asia,74.46759,41.43198,KGZ,Kyrgyz Republic,https://www.peaceagreements.org/agreements/search/?search_type=basic-search&countries=73&match_any_issues=True&name=&text=&signed_after=&signed_before=
74,Lebanon,False,LBN,660,lebanon,5,Middle East and North Africa,,,,,,,,,,Western Asia,Asia,35.89343,33.92145,LBN,Lebanon,https://www.peaceagreements.org/agreements/search/?search_type=basic-search&countries=74&match_any_issues=True&name=&text=&signed_after=&signed_before=
75,Lesotho,False,LSO,570,lesotho,1,Africa (excl MENA),,,,,,,,,,Sub-Saharan Africa,Africa,28.24669,-29.5823,LSO,Lesotho,https://www.peaceagreements.org/agreements/search/?search_type=basic-search&countries=75&match_any_issues=True&name=&text=&signed_after=&signed_before=
76,Liberia,False,LBR,450,liberia,1,Africa (excl MENA),,,,,,,,,,Sub-Saharan Africa,Africa,-9.31039,6.447343,LBR,Liberia,https://www.peaceagreements.org/agreements/search/?search_type=basic-search&countries=76&match_any_issues=True&name=&text=&signed_after=&signed_before=
77,Libya,False,LBY,620,libya,5,Middle East and North Africa,1.0,Libya,libya,https://www.peaceagreements.org/tracker/,https://www.peaceagreements.org/tracker/libya,https://www.peaceagreements.org/tracker/timeline/libya,https://www.peaceagreements.org/tracker/process/libya,https://www.peaceagreements.org/tracker/actors/libya,https://www.peaceagreements.org/tracker/impacts/libya,Northern Africa,Africa,18.03082,27.04182,LBY,Libya,https://www.peaceagreements.org/agreements/search/?search_type=basic-search&countries=77&match_any_issues=True&name=&text=&signed_after=&signed_before=
78,Macedonia,False,MKD,343,macedonia,4,Europe and Eurasia,,,,,,,,,,Southern Europe,Europe,21.71545,41.61052,MKD,North Macedonia,https://www.peaceagreements.org/agreements/search/?search_type=basic-search&countries=78&match_any_issues=True&name=&text=&signed_after=&signed_before=
79,Madagascar,False,MDG,580,madagascar,1,Africa (excl MENA),,,,,,,,,,Sub-Saharan Africa,Africa,46.69788,-19.3769,MDG,Madagascar,https://www.peaceagreements.org/agreements/search/?search_type=basic-search&countries=79&match_any_issues=True&name=&text=&signed_after=&signed_before=
81,Maldives,False,MDV,781,maldives,3,Asia and Pacific,,,,,,,,,,Southern Asia,Asia,73.50928,4.17524,MDV,Maldives,https://www.peaceagreements.org/agreements/search/?search_type=basic-search&countries=81&match_any_issues=True&name=&text=&signed_after=&signed_before=
82,Mali,False,MLI,432,mali,1,Africa (excl MENA),,,,,,,,,,Sub-Saharan Africa,Africa,-3.52047,17.36297,MLI,Mali,https://www.peaceagreements.org/agreements/search/?search_type=basic-search&countries=82&match_any_issues=True&name=&text=&signed_after=&signed_before=
83,Mauritania,False,MRT,435,mauritania,1,Africa (excl MENA),,,,,,,,,,Sub-Saharan Africa,Africa,-10.3315,20.25951,MRT,Mauritania,https://www.peaceagreements.org/agreements/search/?search_type=basic-search&countries=83&match_any_issues=True&name=&text=&signed_after=&signed_before=
84,Mexico,False,MEX,70,mexico,2,Americas,,,,,,,,,,Latin America and the Caribbean,Americas,-102.548,23.95282,MEX,Mexico,https://www.peaceagreements.org/agreements/search/?search_type=basic-search&countries=84&match_any_issues=True&name=&text=&signed_after=&signed_before=
87,Moldova,False,MDA,359,moldova,4,Europe and Eurasia,,,,,,,,,,Eastern Europe,Europe,28.46371,47.20103,MDA,Moldova,https://www.peaceagreements.org/agreements/search/?search_type=basic-search&countries=87&match_any_issues=True&name=&text=&signed_after=&signed_before=
180,Mongolia,False,MNG,712,mongolia,4,Europe and Eurasia,,,,,,,,,,Eastern Asia,Asia,103.0676,46.83469,MNG,Mongolia,https://www.peaceagreements.org/agreements/search/?search_type=basic-search&countries=180&match_any_issues=True&name=&text=&signed_after=&signed_before=
89,Montenegro,False,MNE,341,montenegro,4,Europe and Eurasia,,,,,,,,,,Southern Europe,Europe,19.2521,42.79615,MNE,Montenegro,https://www.peaceagreements.org/agreements/search/?search_type=basic-search&countries=89&match_any_issues=True&name=&text=&signed_after=&signed_before=
90,Morocco,False,MAR,600,morocco,5,Middle East and North Africa,,,,,,,,,,Northern Africa,Africa,-5.0,32.0,MAR,Kingdom of Morocco,https://www.peaceagreements.org/agreements/search/?search_type=basic-search&countries=90&match_any_issues=True&name=&text=&signed_after=&signed_before=
91,Mozambique,False,MOZ,541,mozambique,1,Africa (excl MENA),,,,,,,,,,Sub-Saharan Africa,Africa,35.0,-18.25,MOZ,Mozambique,https://www.peaceagreements.org/agreements/search/?search_type=basic-search&countries=91&match_any_issues=True&name=&text=&signed_after=&signed_before=
92,Myanmar,False,MMR,775,myanmar,3,Asia and Pacific,1.0,Myanmar,myanmar,https://www.peaceagreements.org/tracker/,https://www.peaceagreements.org/tracker/myanmar,https://www.peaceagreements.org/tracker/timeline/myanmar,https://www.peaceagreements.org/tracker/process/myanmar,https://www.peaceagreements.org/tracker/actors/myanmar,https://www.peaceagreements.org/tracker/impacts/myanmar,South-eastern Asia,Asia,96.50374,21.10066,MMR,Burma,https://www.peaceagreements.org/agreements/search/?search_type=basic-search&countries=92&match_any_issues=True&name=&text=&signed_after=&signed_before=
96,Namibia,False,NAM,565,namibia,1,Africa (excl MENA),,,,,,,,,,Sub-Saharan Africa,Africa,17.2215,-22.139,NAM,Namibia,https://www.peaceagreements.org/agreements/search/?search_type=basic-search&countries=96&match_any_issues=True&name=&text=&signed_after=&signed_before=
97,Nepal,False,NPL,790,nepal,3,Asia and Pacific,,,,,,,,,,Southern Asia,Asia,83.94416,28.25914,NPL,Nepal,https://www.peaceagreements.org/agreements/search/?search_type=basic-search&countries=97&match_any_issues=True&name=&text=&signed_after=&signed_before=
99,New Zealand,False,NZL,920,new-zealand,3,Asia and Pacific,,,,,,,,,,Australia and New Zealand,Oceania,172.3434,-42.2872,NZL,New Zealand,https://www.peaceagreements.org/agreements/search/?search_type=basic-search&countries=99&match_any_issues=True&name=&text=&signed_after=&signed_before=
100,Nicaragua,False,NIC,93,nicaragua,2,Americas,,,,,,,,,,Latin America and the Caribbean,Americas,-85.0062,12.93446,NIC,Nicaragua,https://www.peaceagreements.org/agreements/search/?search_type=basic-search&countries=100&match_any_issues=True&name=&text=&signed_after=&signed_before=
101,Niger,False,NER,436,niger,1,Africa (excl MENA),,,,,,,,,,Sub-Saharan Africa,Africa,9.401673,17.42088,NER,Niger,https://www.peaceagreements.org/agreements/search/?search_type=basic-search&countries=101&match_any_issues=True&name=&text=&signed_after=&signed_before=
102,Nigeria,False,NGA,475,nigeria,1,Africa (excl MENA),,,,,,,,,,Sub-Saharan Africa,Africa,8.106778,9.593697,NGA,Nigeria,https://www.peaceagreements.org/agreements/search/?search_type=basic-search&countries=102&match_any_issues=True&name=&text=&signed_after=&signed_before=
103,North Korea,False,PRK,731,north-korea,3,Asia and Pacific,,,,,,,,,,Eastern Asia,Asia,127.1697,40.14183,PRK,Dem People's Republic of Korea,https://www.peaceagreements.org/agreements/search/?search_type=basic-search&countries=103&match_any_issues=True&name=&text=&signed_after=&signed_before=
109,Pakistan,False,PAK,770,pakistan,3,Asia and Pacific,,,,,,,,,,Southern Asia,Asia,70.2101,30.31428,PAK,Pakistan,https://www.peaceagreements.org/agreements/search/?search_type=basic-search&countries=109&match_any_issues=True&name=&text=&signed_after=&signed_before=
186,Panama,False,PAN,95,panama,2,Americas,,,,,,,,,,Latin America and the Caribbean,Americas,-79.9729,8.939604,PAN,Panama,https://www.peaceagreements.org/agreements/search/?search_type=basic-search&countries=186&match_any_issues=True&name=&text=&signed_after=&signed_before=
111,Papua New Guinea,False,PNG,910,papua-new-guinea,3,Asia and Pacific,,,,,,,,,,Melanesia,Oceania,145.2538,-6.47559,PNG,Papua New Guinea,https://www.peaceagreements.org/agreements/search/?search_type=basic-search&countries=111&match_any_issues=True&name=&text=&signed_after=&signed_before=
112,Peru,False,PER,135,peru,2,Americas,,,,,,,,,,Latin America and the Caribbean,Americas,-76.0,-10.0,PER,Peru,https://www.peaceagreements.org/agreements/search/?search_type=basic-search&countries=112&match_any_issues=True&name=&text=&signed_after=&signed_before=
113,Philippines,False,PHL,840,philippines,3,Asia and Pacific,1.0,Philippines,philippines,https://www.peaceagreements.org/tracker/,https://www.peaceagreements.org/tracker/philippines,https://www.peaceagreements.org/tracker/timeline/philippines,https://www.peaceagreements.org/tracker/process/philippines,https://www.peaceagreements.org/tracker/actors/philippines,https://www.peaceagreements.org/tracker/impacts/philippines,South-eastern Asia,Asia,120.8616,14.16486,PHL,Philippines,https://www.peaceagreements.org/agreements/search/?search_type=basic-search&countries=113&match_any_issues=True&name=&text=&signed_after=&signed_before=
154,Portugal,False,PRT,235,portugal,4,Europe and Eurasia,,,,,,,,,,Southern Europe,Europe,-8.51981,39.59314,PRT,Portugal,https://www.peaceagreements.org/agreements/search/?search_type=basic-search&countries=154&match_any_issues=True&name=&text=&signed_after=&signed_before=
35,Republic of Congo,False,COG,484,republic-of-congo,1,Africa (excl MENA),,,,,,,,,,Sub-Saharan Africa,Africa,15.23529,-0.82177,COG,"Congo, Republic of the",https://www.peaceagreements.org/agreements/search/?search_type=basic-search&countries=35&match_any_issues=True&name=&text=&signed_after=&signed_before=
115,Russia,False,RUS,365,russia,4,Europe and Eurasia,,,,,,,,,,Eastern Europe,Europe,96.80537,61.98953,RUS,Russia,https://www.peaceagreements.org/agreements/search/?search_type=basic-search&countries=115&match_any_issues=True&name=&text=&signed_after=&signed_before=
116,Rwanda,False,RWA,517,rwanda,1,Africa (excl MENA),,,,,,,,,,Sub-Saharan Africa,Africa,29.95631,-1.99839,RWA,Rwanda,https://www.peaceagreements.org/agreements/search/?search_type=basic-search&countries=116&match_any_issues=True&name=&text=&signed_after=&signed_before=
117,Saudi Arabia,False,SAU,670,saudi-arabia,5,Middle East and North Africa,,,,,,,,,,Western Asia,Asia,44.54883,24.12137,SAU,Kingdom of Saudi Arabia,https://www.peaceagreements.org/agreements/search/?search_type=basic-search&countries=117&match_any_issues=True&name=&text=&signed_after=&signed_before=
118,Senegal,False,SEN,433,senegal,1,Africa (excl MENA),,,,,,,,,,Sub-Saharan Africa,Africa,-14.4593,14.36303,SEN,Republic of Senegal,https://www.peaceagreements.org/agreements/search/?search_type=basic-search&countries=118&match_any_issues=True&name=&text=&signed_after=&signed_before=
50,Serbia,False,SRB,345,serbia,4,Europe and Eurasia,,,,,,,,,,Southern Europe,Europe,20.80455,44.02936,SRB,Serbia,https://www.peaceagreements.org/agreements/search/?search_type=basic-search&countries=50&match_any_issues=True&name=&text=&signed_after=&signed_before=
121,Sierra Leone,False,SLE,451,sierra-leone,1,Africa (excl MENA),,,,,,,,,,Sub-Saharan Africa,Africa,-11.792,8.558038,SLE,Sierra Leone,https://www.peaceagreements.org/agreements/search/?search_type=basic-search&countries=121&match_any_issues=True&name=&text=&signed_after=&signed_before=
122,Slovenia,False,SVN,349,slovenia,4,Europe and Eurasia,,,,,,,,,,Southern Europe,Europe,14.82176,46.11955,SVN,Republic of Slovenia,https://www.peaceagreements.org/agreements/search/?search_type=basic-search&countries=122&match_any_issues=True&name=&text=&signed_after=&signed_before=
123,Solomon Islands,False,SLB,940,solomon-islands,3,Asia and Pacific,,,,,,,,,,Melanesia,Oceania,160.1603,-9.6228,SLB,Solomon Islands,https://www.peaceagreements.org/agreements/search/?search_type=basic-search&countries=123&match_any_issues=True&name=&text=&signed_after=&signed_before=
124,Somalia,False,SOM,520,somalia,1,Africa (excl MENA),1.0,Somalia,somalia,https://www.peaceagreements.org/tracker/,https://www.peaceagreements.org/tracker/somalia,https://www.peaceagreements.org/tracker/timeline/somalia,https://www.peaceagreements.org/tracker/process/somalia,https://www.peaceagreements.org/tracker/actors/somalia,https://www.peaceagreements.org/tracker/impacts/somalia,Sub-Saharan Africa,Africa,46.20311,4.404616,SOM,Somalia,https://www.peaceagreements.org/agreements/search/?search_type=basic-search&countries=124&match_any_issues=True&name=&text=&signed_after=&signed_before=
125,South Africa,False,ZAF,560,south-africa,1,Africa (excl MENA),,,,,,,,,,Sub-Saharan Africa,Africa,25.08505,-28.9972,ZAF,South Africa,https://www.peaceagreements.org/agreements/search/?search_type=basic-search&countries=125&match_any_issues=True&name=&text=&signed_after=&signed_before=
126,South Korea,False,KOR,732,south-korea,3,Asia and Pacific,,,,,,,,,,Eastern Asia,Asia,127.8064,36.35627,KOR,Republic of Korea,https://www.peaceagreements.org/agreements/search/?search_type=basic-search&countries=126&match_any_issues=True&name=&text=&signed_after=&signed_before=
127,South Sudan,False,SSD,626,south-sudan,1,Africa (excl MENA),1.0,South Sudan,south-sudan,https://www.peaceagreements.org/tracker/,https://www.peaceagreements.org/tracker/south-sudan,https://www.peaceagreements.org/tracker/timeline/south-sudan,https://www.peaceagreements.org/tracker/process/south-sudan,https://www.peaceagreements.org/tracker/actors/south-sudan,https://www.peaceagreements.org/tracker/impacts/south-sudan,Sub-Saharan Africa,Africa,30.34377,7.263461,SSD,South Sudan,https://www.peaceagreements.org/agreements/search/?search_type=basic-search&countries=127&match_any_issues=True&name=&text=&signed_after=&signed_before=
128,Spain,False,ESP,230,spain,4,Europe and Eurasia,,,,,,,,,,Southern Europe,Europe,-3.64606,40.22795,ESP,Kingdom of Spain,https://www.peaceagreements.org/agreements/search/?search_type=basic-search&countries=128&match_any_issues=True&name=&text=&signed_after=&signed_before=
129,Sri Lanka,False,LKA,780,sri-lanka,3,Asia and Pacific,,,,,,,,,,Southern Asia,Asia,80.69863,7.617678,LKA,Sri Lanka,https://www.peaceagreements.org/agreements/search/?search_type=basic-search&countries=129&match_any_issues=True&name=&text=&signed_after=&signed_before=
130,Sudan,False,SDN,625,sudan,1,Africa (excl MENA),1.0,Sudan,sudan,https://www.peaceagreements.org/tracker/,https://www.peaceagreements.org/tracker/sudan,https://www.peaceagreements.org/tracker/timeline/sudan,https://www.peaceagreements.org/tracker/process/sudan,https://www.peaceagreements.org/tracker/actors/sudan,https://www.peaceagreements.org/tracker/impacts/sudan,Northern Africa,Africa,30.00919,16.05325,SDN,Sudan,https://www.peaceagreements.org/agreements/search/?search_type=basic-search&countries=130&match_any_issues=True&name=&text=&signed_after=&signed_before=
131,Syria,False,SYR,652,syria,5,Middle East and North Africa,1.0,Syria,syria,https://www.peaceagreements.org/tracker/,https://www.peaceagreements.org/tracker/syria,https://www.peaceagreements.org/tracker/timeline/syria,https://www.peaceagreements.org/tracker/process/syria,https://www.peaceagreements.org/tracker/actors/syria,https://www.peaceagreements.org/tracker/impacts/syria,Western Asia,Asia,38.50527,35.01281,SYR,Syria,https://www.peaceagreements.org/agreements/search/?search_type=basic-search&countries=131&match_any_issues=True&name=&text=&signed_after=&signed_before=
132,Tajikistan,False,TJK,702,tajikistan,4,Europe and Eurasia,,,,,,,,,,Central Asia,Asia,71.0,39.0,TJK,Republic of Tajikistan,https://www.peaceagreements.org/agreements/search/?search_type=basic-search&countries=132&match_any_issues=True&name=&text=&signed_after=&signed_before=
133,Tanzania,False,TZA,510,tanzania,1,Africa (excl MENA),,,,,,,,,,Sub-Saharan Africa,Africa,34.99532,-6.4384,TZA,Tanzania,https://www.peaceagreements.org/agreements/search/?search_type=basic-search&countries=133&match_any_issues=True&name=&text=&signed_after=&signed_before=
134,Thailand,False,THA,800,thailand,3,Asia and Pacific,,,,,,,,,,South-eastern Asia,Asia,101.0122,15.1168,THA,Kingdom of Thailand,https://www.peaceagreements.org/agreements/search/?search_type=basic-search&countries=134&match_any_issues=True&name=&text=&signed_after=&signed_before=
135,Togo,False,TGO,461,togo,1,Africa (excl MENA),,,,,,,,,,Sub-Saharan Africa,Africa,0.974444,8.53905,TGO,Togo,https://www.peaceagreements.org/agreements/search/?search_type=basic-search&countries=135&match_any_issues=True&name=&text=&signed_after=&signed_before=
136,Tonga,False,TON,972,tonga,1,Africa (excl MENA),,,,,,,,,,Polynesia,Oceania,-175.276,-21.1587,TON,Tonga,https://www.peaceagreements.org/agreements/search/?search_type=basic-search&countries=136&match_any_issues=True&name=&text=&signed_after=&signed_before=
164,Tunisia,False,TUN,616,tunisia,5,Middle East and North Africa,,,,,,,,,,Northern Africa,Africa,9.608516,34.11632,TUN,Republic of Tunisia,https://www.peaceagreements.org/agreements/search/?search_type=basic-search&countries=164&match_any_issues=True&name=&text=&signed_after=&signed_before=
139,Turkey,False,TUR,640,turkey,4,Europe and Eurasia,,,,,,,,,,Western Asia,Asia,35.14229,39.06625,TUR,Republic of Turkiye,https://www.peaceagreements.org/agreements/search/?search_type=basic-search&countries=139&match_any_issues=True&name=&text=&signed_after=&signed_before=
140,Turkmenistan,False,TKM,701,turkmenistan,4,Europe and Eurasia,,,,,,,,,,Central Asia,Asia,59.17525,39.19336,TKM,Turkmenistan,https://www.peaceagreements.org/agreements/search/?search_type=basic-search&countries=140&match_any_issues=True&name=&text=&signed_after=&signed_before=
141,Uganda,False,UGA,500,uganda,1,Africa (excl MENA),,,,,,,,,,Sub-Saharan Africa,Africa,32.33571,1.513806,UGA,Uganda,https://www.peaceagreements.org/agreements/search/?search_type=basic-search&countries=141&match_any_issues=True&name=&text=&signed_after=&signed_before=
142,Ukraine,False,UKR,369,ukraine,4,Europe and Eurasia,1.0,Ukraine,ukraine,https://www.peaceagreements.org/tracker/,https://www.peaceagreements.org/tracker/ukraine,https://www.peaceagreements.org/tracker/timeline/ukraine,https://www.peaceagreements.org/tracker/process/ukraine,https://www.peaceagreements.org/tracker/actors/ukraine,https://www.peaceagreements.org/tracker/impacts/ukraine,Eastern Europe,Europe,31.37493,49.0269,UKR,Ukraine,https://www.peaceagreements.org/agreements/search/?search_type=basic-search&countries=142&match_any_issues=True&name=&text=&signed_after=&signed_before=
143,United Kingdom,False,GBR,200,united-kingdom,4,Europe and Eurasia,,,,,,,,,,Northern Europe,Europe,-1.96956,53.40839,GBR,United Kingdom,https://www.peaceagreements.org/agreements/search/?search_type=basic-search&countries=143&match_any_issues=True&name=&text=&signed_after=&signed_before=
145,United States of America,False,USA,2,united-states-of-america,2,Americas,,,,,,,,,,Northern America,Americas,-99.4146,39.3987,USA,United States,https://www.peaceagreements.org/agreements/search/?search_type=basic-search&countries=145&match_any_issues=True&name=&text=&signed_after=&signed_before=
146,Uzbekistan,False,UZB,704,uzbekistan,4,Europe and Eurasia,,,,,,,,,,Central Asia,Asia,63.42188,41.58135,UZB,Republic of Uzbekistan,https://www.peaceagreements.org/agreements/search/?search_type=basic-search&countries=146&match_any_issues=True&name=&text=&signed_after=&signed_before=
149,Vanuatu,False,VUT,935,vanuatu,3,Asia and Pacific,,,,,,,,,,Melanesia,Oceania,166.8728,-15.2414,VUT,Vanuatu,https://www.peaceagreements.org/agreements/search/?search_type=basic-search&countries=149&match_any_issues=True&name=&text=&signed_after=&signed_before=
150,Venezuela,False,VEN,101,venezuela,2,Americas,,,,,,,,,,Latin America and the Caribbean,Americas,-66.1628,7.120734,VEN,Bolivarian Republic of Venezuela,https://www.peaceagreements.org/agreements/search/?search_type=basic-search&countries=150&match_any_issues=True&name=&text=&signed_after=&signed_before=
148,Yemen,False,YEM,678,yemen,5,Middle East and North Africa,1.0,Yemen,yemen,https://www.peaceagreements.org/tracker/,https://www.peaceagreements.org/tracker/yemen,https://www.peaceagreements.org/tracker/timeline/yemen,https://www.peaceagreements.org/tracker/process/yemen,https://www.peaceagreements.org/tracker/actors/yemen,https://www.peaceagreements.org/tracker/impacts/yemen,Western Asia,Asia,47.59395,15.90521,YEM,Yemen,https://www.peaceagreements.org/agreements/search/?search_type=basic-search&countries=148&match_any_issues=True&name=&text=&signed_after=&signed_before=
157,Yugoslavia (former),False,,345,yugoslavia-former,4,Europe and Eurasia,,,,,,,,,,Southern Europe,Europe,-66.1587,-17.4164,BOL,Bolivia,https://www.peaceagreements.org/agreements/search/?search_type=basic-search&countries=157&match_any_issues=True&name=&text=&signed_after=&signed_before=
151,Zambia,False,ZMB,551,zambia,1,Africa (excl MENA),,,,,,,,,,Sub-Saharan Africa,Africa,28.76797,-14.4688,ZMB,Zambia,https://www.peaceagreements.org/agreements/search/?search_type=basic-search&countries=151&match_any_issues=True&name=&text=&signed_after=&signed_before=
152,Zimbabwe,False,ZWE,552,zimbabwe,1,Africa (excl MENA),,,,,,,,,,Sub-Saharan Africa,Africa,29.88428,-19.0162,ZWE,Zimbabwe,https://www.peaceagreements.org/agreements/search/?search_type=basic-search&countries=152&match_any_issues=True&name=&text=&signed_after=&signed_before=
2,Abkhazia,True,,,abkhazia,4,Europe and Eurasia,,,,,,,,,,Western Asia,Asia,41.16521,43.11038,,,https://www.peaceagreements.org/agreements/search/?search_type=basic-search&countries=2&match_any_issues=True&name=&text=&signed_after=&signed_before=
3,Aceh,True,,,aceh,3,Asia and Pacific,,,,,,,,,,South-eastern Asia,Asia,96.90952,4.225082,IDN,Indonesia,https://www.peaceagreements.org/agreements/search/?search_type=basic-search&countries=3&match_any_issues=True&name=&text=&signed_after=&signed_before=
6,African Great Lakes,True,,,african-great-lakes,1,Africa (excl MENA),,,,,,,,,,,Africa,33.72941,0.66434,,,https://www.peaceagreements.org/agreements/search/?search_type=basic-search&countries=6&match_any_issues=True&name=&text=&signed_after=&signed_before=
7,Air and Azawad,True,,,air-and-azawad,1,Africa (excl MENA),,,,,,,,,,Sub-Saharan Africa,Africa,-2.33417,18.54778,MLI,Mali,https://www.peaceagreements.org/agreements/search/?search_type=basic-search&countries=7&match_any_issues=True&name=&text=&signed_after=&signed_before=
10,Anjouan,True,,,anjouan,1,Africa (excl MENA),,,,,,,,,,Sub-Saharan Africa,Africa,44.43654,-12.2224,COM,Comoros,https://www.peaceagreements.org/agreements/search/?search_type=basic-search&countries=10&match_any_issues=True&name=&text=&signed_after=&signed_before=
189,Assam,True,,,assam,3,Asia and Pacific,,,,,,,,,,Southern Asia,Asia,92.83008,26.32614,IND,India,https://www.peaceagreements.org/agreements/search/?search_type=basic-search&countries=189&match_any_issues=True&name=&text=&signed_after=&signed_before=
190,Aweil Counties,True,,,aweil-counties,1,Africa (excl MENA),,,,,,,,,,,,,,,,https://www.peaceagreements.org/agreements/search/?search_type=basic-search&countries=190&match_any_issues=True&name=&text=&signed_after=&signed_before=
15,Azawad,True,,,azawad,1,Africa (excl MENA),,,,,,,,,,Sub-Saharan Africa,Africa,-2.33417,18.54778,MLI,Mali,https://www.peaceagreements.org/agreements/search/?search_type=basic-search&countries=15&match_any_issues=True&name=&text=&signed_after=&signed_before=
18,Basque Country,True,,,basque-country,4,Europe and Eurasia,,,,,,,,,,Southern Europe,Europe,-2.617,43.04318,ESP,Kingdom of Spain,https://www.peaceagreements.org/agreements/search/?search_type=basic-search&countries=18&match_any_issues=True&name=&text=&signed_after=&signed_before=
19,Bodoland,True,,,bodoland,3,Asia and Pacific,,,,,,,,,,Southern Asia,Asia,90.27407,26.40735,,,https://www.peaceagreements.org/agreements/search/?search_type=basic-search&countries=19&match_any_issues=True&name=&text=&signed_after=&signed_before=
21,Bougainville,True,,,bougainville,3,Asia and Pacific,,,,,,,,,,Melanesia,Oceania,155.0,-6.0,,,https://www.peaceagreements.org/agreements/search/?search_type=basic-search&countries=21&match_any_issues=True&name=&text=&signed_after=&signed_before=
196,Cabinda,True,,,cabinda,1,Africa (excl MENA),,,,,,,,,,Sub-Saharan Africa,Africa,12.19448,-5.56084,AGO,Angola,https://www.peaceagreements.org/agreements/search/?search_type=basic-search&countries=196&match_any_issues=True&name=&text=&signed_after=&signed_before=
25,Casamance,True,,,casamance,1,Africa (excl MENA),,,,,,,,,,Sub-Saharan Africa,Africa,-15.5,12.75,SEN,Senegal,https://www.peaceagreements.org/agreements/search/?search_type=basic-search&countries=25&match_any_issues=True&name=&text=&signed_after=&signed_before=
28,Chechnya,True,,,chechnya,4,Europe and Eurasia,,,,,,,,,,Eastern Europe,Europe,45.74235,43.3037,RUS,Russia,https://www.peaceagreements.org/agreements/search/?search_type=basic-search&countries=28&match_any_issues=True&name=&text=&signed_after=&signed_before=
31,Chittagong Hill Tracts,True,,,chittagong-hill-tracts,3,Asia and Pacific,,,,,,,,,,Southern Asia,Asia,92.24725,23.0059,BGD,বাংলাদেশ,https://www.peaceagreements.org/agreements/search/?search_type=basic-search&countries=31&match_any_issues=True&name=&text=&signed_after=&signed_before=
153,Cordillera,True,,,cordillera,3,Asia and Pacific,,,,,,,,,,South-eastern Asia,Asia,-56.9547,-25.2032,PRY,Paraguay,https://www.peaceagreements.org/agreements/search/?search_type=basic-search&countries=153&match_any_issues=True&name=&text=&signed_after=&signed_before=
40,Darfur,True,,,darfur,1,Africa (excl MENA),,,,,,,,,,Northern Africa,Africa,25.0,13.0,,,https://www.peaceagreements.org/agreements/search/?search_type=basic-search&countries=40&match_any_issues=True&name=&text=&signed_after=&signed_before=
41,Darjeeling,True,,,darjeeling,3,Asia and Pacific,,,,,,,,,,Southern Asia,Asia,88.26382,27.03937,IND,India,https://www.peaceagreements.org/agreements/search/?search_type=basic-search&countries=41&match_any_issues=True&name=&text=&signed_after=&signed_before=
44,East Timor,True,,860,east-timor,3,Asia and Pacific,,,,,,,,,,South-eastern Asia,Asia,125.8524,-8.82032,TLS,Democratic Republic of Timor-Leste,https://www.peaceagreements.org/agreements/search/?search_type=basic-search&countries=44&match_any_issues=True&name=&text=&signed_after=&signed_before=
45,Eastern Sudan,True,,,eastern-sudan,1,Africa (excl MENA),,,,,,,,,,,,,,,,https://www.peaceagreements.org/agreements/search/?search_type=basic-search&countries=45&match_any_issues=True&name=&text=&signed_after=&signed_before=
192,Gogrial West County,True,,,gogrial-west-county,1,Africa (excl MENA),,,,,,,,,,Sub-Saharan Africa,Africa,,,,,https://www.peaceagreements.org/agreements/search/?search_type=basic-search&countries=192&match_any_issues=True&name=&text=&signed_after=&signed_before=
176,International Monetary Fund,True,,,international-monetary-fund,6,Cross-regional,,,,,,,,,,,,,,,,https://www.peaceagreements.org/agreements/search/?search_type=basic-search&countries=176&match_any_issues=True&name=&text=&signed_after=&signed_before=
187,Kurds-Kurdistan,True,,,kurds-kurdistan,6,Cross-regional,,,,,,,,,,Western Asia,Asia,44.0,37.0,IRQ,Iraq,https://www.peaceagreements.org/agreements/search/?search_type=basic-search&countries=187&match_any_issues=True&name=&text=&signed_after=&signed_before=
188,Manipur,True,,,manipur,3,Asia and Pacific,,,,,,,,,,Southern Asia,Asia,93.88333,24.73253,IND,India,https://www.peaceagreements.org/agreements/search/?search_type=basic-search&countries=188&match_any_issues=True&name=&text=&signed_after=&signed_before=
85,Mindanao,True,,,mindanao,3,Asia and Pacific,,,,,,,,,,South-eastern Asia,Asia,123.3444,9.64372,PHL,Philippines,https://www.peaceagreements.org/agreements/search/?search_type=basic-search&countries=85&match_any_issues=True&name=&text=&signed_after=&signed_before=
86,Mizoram,True,,,mizoram,3,Asia and Pacific,,,,,,,,,,Southern Asia,Asia,92.82892,23.3078,IND,India,https://www.peaceagreements.org/agreements/search/?search_type=basic-search&countries=86&match_any_issues=True&name=&text=&signed_after=&signed_before=
88,Moluccas,True,,,moluccas,3,Asia and Pacific,,,,,,,,,,South-eastern Asia,Asia,127.7174,-1.57634,IDN,Indonesia,https://www.peaceagreements.org/agreements/search/?search_type=basic-search&countries=88&match_any_issues=True&name=&text=&signed_after=&signed_before=
201,Mopti,True,ML-5,,mopti,1,Africa (excl MENA),,,,,,,,,,Sub-Saharan Africa,Africa,-4.1933,14.4893,MLI,Mali,https://www.peaceagreements.org/agreements/search/?search_type=basic-search&countries=201&match_any_issues=True&name=&text=&signed_after=&signed_before=
93,Nagaland,True,,,nagaland,3,Asia and Pacific,,,,,,,,,,Southern Asia,Asia,94.47205,26.05934,IND,India,https://www.peaceagreements.org/agreements/search/?search_type=basic-search&countries=93&match_any_issues=True&name=&text=&signed_after=&signed_before=
95,Nagorno-Karabakh,True,,,nagorno-karabakh,4,Europe and Eurasia,,,,,,,,,,Western Asia,Asia,46.58333,40.0,,,https://www.peaceagreements.org/agreements/search/?search_type=basic-search&countries=95&match_any_issues=True&name=&text=&signed_after=&signed_before=
98,New Caledonia,True,,,new-caledonia,3,Asia and Pacific,,,,,,,,,,Western Europe,Europe,165.7018,-21.3078,NCL,New Caledonia,https://www.peaceagreements.org/agreements/search/?search_type=basic-search&countries=98&match_any_issues=True&name=&text=&signed_after=&signed_before=
104,Northern Ireland,True,,,northern-ireland,4,Europe and Eurasia,1.0,Northern Ireland,northern-ireland,https://www.peaceagreements.org/tracker/,https://www.peaceagreements.org/tracker/northern-ireland,https://www.peaceagreements.org/tracker/timeline/northern-ireland,https://www.peaceagreements.org/tracker/process/northern-ireland,https://www.peaceagreements.org/tracker/actors/northern-ireland,https://www.peaceagreements.org/tracker/impacts/northern-ireland,Northern Europe,Europe,-6.69275,54.61039,GBR,United Kingdom,https://www.peaceagreements.org/agreements/search/?search_type=basic-search&countries=104&match_any_issues=True&name=&text=&signed_after=&signed_before=
106,Ogaden,True,,,ogaden,1,Africa (excl MENA),,,,,,,,,,Sub-Saharan Africa,Africa,44.0,8.0,ETH,Ethiopia,https://www.peaceagreements.org/agreements/search/?search_type=basic-search&countries=106&match_any_issues=True&name=&text=&signed_after=&signed_before=
107,Ossetia,True,,,ossetia,4,Europe and Eurasia,,,,,,,,,,Western Asia,Asia,44.63758,43.03491,RUS,Russia,https://www.peaceagreements.org/agreements/search/?search_type=basic-search&countries=107&match_any_issues=True&name=&text=&signed_after=&signed_before=
108,Palestine,True,,,palestine,5,Middle East and North Africa,,,,,,,,,,Western Asia,Asia,35.20468,31.91272,,,https://www.peaceagreements.org/agreements/search/?search_type=basic-search&countries=108&match_any_issues=True&name=&text=&signed_after=&signed_before=
197,Plateau State,True,,,plateau-state,1,Africa (excl MENA),,,,,,,,,,Sub-Saharan Africa,Africa,9.75,9.16667,NGA,Nigeria,https://www.peaceagreements.org/agreements/search/?search_type=basic-search&countries=197&match_any_issues=True&name=&text=&signed_after=&signed_before=
162,Presevo Valley,True,,,presevo-valley,4,Europe and Eurasia,,,,,,,,,,Southern Europe,Europe,21.64978,42.30662,,,https://www.peaceagreements.org/agreements/search/?search_type=basic-search&countries=162&match_any_issues=True&name=&text=&signed_after=&signed_before=
169,Puntland,True,,,puntland,1,Africa (excl MENA),,,,,,,,,,Sub-Saharan Africa,Africa,49.0,9.0,SOM,Somalia,https://www.peaceagreements.org/agreements/search/?search_type=basic-search&countries=169&match_any_issues=True&name=&text=&signed_after=&signed_before=
156,Rebolusyonaryong Alyansang Makabansa (SFP-YOU),True,,,rebolusyonaryong-alyansang-makabansa-sfp-you,3,Asia and Pacific,,,,,,,,,,South-eastern Asia,Asia,,,,,https://www.peaceagreements.org/agreements/search/?search_type=basic-search&countries=156&match_any_issues=True&name=&text=&signed_after=&signed_before=
155,Rebolusyonaryong Partido ng Manggagawa-Pilipineas (RPMP/RPA/ABB),True,,,rebolusyonaryong-partido-ng-manggagawa-pilipineas,3,Asia and Pacific,,,,,,,,,,South-eastern Asia,Asia,,,,,https://www.peaceagreements.org/agreements/search/?search_type=basic-search&countries=155&match_any_issues=True&name=&text=&signed_after=&signed_before=
168,Somaliland,True,,,somaliland,1,Africa (excl MENA),,,,,,,,,,Sub-Saharan Africa,Africa,45.0,8.0,ETH,Ethiopia,https://www.peaceagreements.org/agreements/search/?search_type=basic-search&countries=168&match_any_issues=True&name=&text=&signed_after=&signed_before=
198,Southern Kaduna,True,,,southern-kaduna,1,Africa (excl MENA),,,,,,,,,,Sub-Saharan Africa,Africa,,,,,https://www.peaceagreements.org/agreements/search/?search_type=basic-search&countries=198&match_any_issues=True&name=&text=&signed_after=&signed_before=
1,Southern Kordofan - Blue Nile - Abyei,True,,,southern-kordofan-blue-nile-abyei,1,Africa (excl MENA),,,,,,,,,,Northern Africa,Africa,,,,,https://www.peaceagreements.org/agreements/search/?search_type=basic-search&countries=1&match_any_issues=True&name=&text=&signed_after=&signed_before=
167,Taliban,True,,,taliban,6,Cross-regional,,,,,,,,,,,,,,,,https://www.peaceagreements.org/agreements/search/?search_type=basic-search&countries=167&match_any_issues=True&name=&text=&signed_after=&signed_before=
193,Terekeka,True,,,terekeka,1,Africa (excl MENA),,,,,,,,,,Sub-Saharan Africa,Africa,36.88562,-1.32987,KEN,Kenya,https://www.peaceagreements.org/agreements/search/?search_type=basic-search&countries=193&match_any_issues=True&name=&text=&signed_after=&signed_before=
202,Tigray,True,,,tigray,1,Africa (excl MENA),,,,,,,,,,,,,,,,https://www.peaceagreements.org/agreements/search/?search_type=basic-search&countries=202&match_any_issues=True&name=&text=&signed_after=&signed_before=
137,Transdniestria,True,,,transdniestria,4,Europe and Eurasia,,,,,,,,,,Eastern Europe,Europe,29.25,47.33333,,,https://www.peaceagreements.org/agreements/search/?search_type=basic-search&countries=137&match_any_issues=True&name=&text=&signed_after=&signed_before=
138,Tripura,True,,,tripura,3,Asia and Pacific,,,,,,,,,,Southern Asia,Asia,91.74011,23.74652,IND,India,https://www.peaceagreements.org/agreements/search/?search_type=basic-search&countries=138&match_any_issues=True&name=&text=&signed_after=&signed_before=
191,Twic County,True,,,twic-county,1,Africa (excl MENA),,,,,,,,,,Sub-Saharan Africa,Africa,28.28613,9.11055,SSD,South Sudan,https://www.peaceagreements.org/agreements/search/?search_type=basic-search&countries=191&match_any_issues=True&name=&text=&signed_after=&signed_before=
144,United Nations,True,,,united-nations,6,Cross-regional,,,,,,,,,,,,,,,,https://www.peaceagreements.org/agreements/search/?search_type=basic-search&countries=144&match_any_issues=True&name=&text=&signed_after=&signed_before=
147,Western Sahara,True,,,western-sahara,5,Middle East and North Africa,,,,,,,,,,Northern Africa,Africa,-13.1395,24.6585,,,https://www.peaceagreements.org/agreements/search/?search_type=basic-search&countries=147&match_any_issues=True&name=&text=&signed_after=&signed_before=
179,World Bank,True,,,world-bank,6,Cross-regional,,,,,,,,,,,,,,,,https://www.peaceagreements.org/agreements/search/?search_type=basic-search&countries=179&match_any_issues=True&name=&text=&signed_after=&signed_before=
